[{"lieu_de_vote": "ECOLE BAYARD", "adresse": "60 RUE MATABIAU", "bureaux": ["013", "014", "015", "016", "017"], "geo_point_2d": {"lon": 1.4490350510012704, "lat": 43.612150890702104}}, {"lieu_de_vote": "GROUPE SCOLAIRE LITTRE", "adresse": "2 PL BERTIER", "bureaux": ["144", "145", "146"], "geo_point_2d": {"lon": 1.3778018226920903, "lat": 43.60804918413762}}, {"lieu_de_vote": "ECOLE BONNEFOY", "adresse": "18 RUE DU FG BONNEFOY", "bureaux": ["020", "021", "022", "023"], "geo_point_2d": {"lon": 1.454283867770112, "lat": 43.61666946178212}}, {"lieu_de_vote": "ECOLE JEAN MACE", "adresse": "1 CH DUROUX", "bureaux": ["229", "230", "231", "232"], "geo_point_2d": {"lon": 1.4787704850861905, "lat": 43.59510003191095}}, {"lieu_de_vote": "ECOLE LE PASTEL", "adresse": "2 CH D ESCALLES", "bureaux": ["082", "083", "083A", "083A"], "geo_point_2d": {"lon": 1.4529007363802395, "lat": 43.54490134589497}}, {"lieu_de_vote": "GYMNASE JEAN MOULIN", "adresse": "7 AV DES ECOLES JULES JULIEN", "bureaux": ["074", "075", "076", "077", "078", "079", "080", "081", "081A", "081A"], "geo_point_2d": {"lon": 1.4558484972819106, "lat": 43.57407381758126}}, {"lieu_de_vote": "MAISON DES ASSOCIATIONS", "adresse": "3 PL GUY HERSANT", "bureaux": ["054", "055", "056", "057", "067", "068", "069", "069A", "070", "071", "072", "073", "054A", "069A"], "geo_point_2d": {"lon": 1.4441943157920225, "lat": 43.5774736931669}}, {"lieu_de_vote": "PETIT CAPITOLE", "adresse": "153 AV DE LARDENNE", "bureaux": ["134", "135", "136", "137", "138", "139", "140", "147", "148", "148A", "148A", "136A"], "geo_point_2d": {"lon": 1.3892046036319567, "lat": 43.59211838202388}}, {"lieu_de_vote": "GYMNASE JEAN FRANCOIS PUIG", "adresse": "4 RUE COUPEFER", "bureaux": ["113", "114", "115", "116", "119", "120", "121", "122", "141", "142", "143"], "geo_point_2d": {"lon": 1.4337431227660877, "lat": 43.59576311106657}}, {"lieu_de_vote": "CAPITOLE - SALLE DES COMMISSIONS", "adresse": "PL DU CAPITOLE", "bureaux": ["001", "002"], "geo_point_2d": {"lon": 1.4442587001342, "lat": 43.60442780181132}}, {"lieu_de_vote": "ECOLE GEORGES HYON", "adresse": "1 IMP BACHAGA BOUALAM", "bureaux": ["131", "132", "133"], "geo_point_2d": {"lon": 1.409444577001141, "lat": 43.57927320147761}}, {"lieu_de_vote": "ECOLE CUVIER", "adresse": "135 RTE D ALBI", "bureaux": ["193", "193A", "194", "195", "196", "197", "198", "198A", "198A", "193A", "196A"], "geo_point_2d": {"lon": 1.4632630297994824, "lat": 43.63693595282786}}, {"lieu_de_vote": "ECOLE LA MAOURINE", "adresse": "13 AV MAUNOURY", "bureaux": ["199", "200", "201", "199A"], "geo_point_2d": {"lon": 1.4486234045615427, "lat": 43.62989752333419}}, {"lieu_de_vote": "ECOLE P ET M CURIE", "adresse": "36 RUE DE LA JEUNESSE", "bureaux": ["027", "028", "029", "030"], "geo_point_2d": {"lon": 1.4432673257755069, "lat": 43.62098260311352}}, {"lieu_de_vote": "CSC ALBAN MINVILLE", "adresse": "PL MARTIN LUTHER KING", "bureaux": ["097", "098", "099"], "geo_point_2d": {"lon": 1.399143332758556, "lat": 43.564203945899386}}, {"lieu_de_vote": "SALLE BARCELONE", "adresse": "22 ALLEE DE BARCELONE", "bureaux": ["003", "004", "005", "006", "007", "167", "168", "169", "170"], "geo_point_2d": {"lon": 1.4336555039386751, "lat": 43.60634944301374}}, {"lieu_de_vote": "SALLE LAFAGE", "adresse": "2 RUE LAFAGE", "bureaux": ["084", "085", "126", "127", "128"], "geo_point_2d": {"lon": 1.4276264511706402, "lat": 43.58458448480909}}, {"lieu_de_vote": "MATERNELLE DES VERGERS", "adresse": "2 IMP DES VERGERS", "bureaux": ["104", "105", "106"], "geo_point_2d": {"lon": 1.398120961555822, "lat": 43.58126907409331}}, {"lieu_de_vote": "ECOLE ALFRED DE MUSSET", "adresse": "5 RUE DU GAL HOCHE", "bureaux": ["161", "162", "163", "164"], "geo_point_2d": {"lon": 1.4308022079325242, "lat": 43.62316050219934}}, {"lieu_de_vote": "GROUPE SCOLAIRE CHATEAU D'ANCELY", "adresse": "4 ALL DU VIVARAIS", "bureaux": ["175", "176", "177", "178"], "geo_point_2d": {"lon": 1.398525304765885, "lat": 43.61884665181069}}, {"lieu_de_vote": "ECOLE ERNEST RENAN", "adresse": "7 CH D AUDIBERT", "bureaux": ["189", "189A", "190", "190A", "191", "192", "192A", "192B", "190A", "192B", "192A", "189A"], "geo_point_2d": {"lon": 1.4434087331777274, "lat": 43.636544073836895}}, {"lieu_de_vote": "ECOLE LA JUNCASSE", "adresse": "133 RUE LOUIS PLANA", "bureaux": ["212", "213", "214", "214A", "215", "216", "217", "214A"], "geo_point_2d": {"lon": 1.4715184533641206, "lat": 43.617096850652686}}, {"lieu_de_vote": "ECOLE ARMAND LEYGUE", "adresse": "20 RUE LUCIEN CASSAGNE", "bureaux": ["222", "223", "224", "225", "226", "227", "228"], "geo_point_2d": {"lon": 1.464177475822314, "lat": 43.59684218572041}}, {"lieu_de_vote": "ESPACE BONNEFOY PERIOLE", "adresse": "25 RUE DE PERIOLE", "bureaux": ["024", "025", "026"], "geo_point_2d": {"lon": 1.4562244199748167, "lat": 43.615690692193205}}, {"lieu_de_vote": "ECOLE LA TERRASSE", "adresse": "4 IMP TRUTAT", "bureaux": ["244", "245", "246", "247", "248"], "geo_point_2d": {"lon": 1.4850999447310695, "lat": 43.583985252361195}}, {"lieu_de_vote": "ECOLE CALVINHAC", "adresse": "8 BIS RUE JACQUES LABATUT", "bureaux": ["040", "041"], "geo_point_2d": {"lon": 1.4548069717441863, "lat": 43.597830802015494}}, {"lieu_de_vote": "ECOLE JEAN JAURES", "adresse": "21 AV FRIZAC", "bureaux": ["048", "049", "050", "051", "052", "053"], "geo_point_2d": {"lon": 1.45156937110758, "lat": 43.58891132338328}}, {"lieu_de_vote": "ECOLE SAUZELONG", "adresse": "92 AV ALBERT BEDOUCE", "bureaux": ["064", "065", "066"], "geo_point_2d": {"lon": 1.4624136322761103, "lat": 43.58049717501161}}, {"lieu_de_vote": "ECOLE DU NORD", "adresse": "13 BD D ARCOLE", "bureaux": ["008", "009", "010", "011", "012"], "geo_point_2d": {"lon": 1.4411395476331677, "lat": 43.610866523161924}}, {"lieu_de_vote": "ECOLE SYLVAIN DAURIAC", "adresse": "39 RUE PAUL LAMBERT", "bureaux": ["094", "095", "096"], "geo_point_2d": {"lon": 1.41388568955442, "lat": 43.57790212226358}}, {"lieu_de_vote": "ECOLE PAUL BERT", "adresse": "4 CH LIFFARD", "bureaux": ["107", "108", "109", "110", "111", "112", "112A", "112B", "112A"], "geo_point_2d": {"lon": 1.3789443227638514, "lat": 43.56029316278273}}, {"lieu_de_vote": "ECOLE SEPT DENIERS", "adresse": "110 RTE DE BLAGNAC", "bureaux": ["171", "172", "173", "174"], "geo_point_2d": {"lon": 1.4095101777955341, "lat": 43.61703034385216}}, {"lieu_de_vote": "ECOLE LALANDE", "adresse": "239 AV DE FRONTON", "bureaux": ["183", "183A", "184", "185", "186", "183A"], "geo_point_2d": {"lon": 1.4321016144317762, "lat": 43.64764083275654}}, {"lieu_de_vote": "MATERNELLE REILLE", "adresse": "4 BIS RUE REILLE", "bureaux": ["202", "203", "204", "205"], "geo_point_2d": {"lon": 1.4597666870119739, "lat": 43.610613689068664}}, {"lieu_de_vote": "ECOLE JEAN CHAUBET", "adresse": "112 AV CAMILLE PUJOL", "bureaux": ["233", "234"], "geo_point_2d": {"lon": 1.4676619616572266, "lat": 43.60054091152456}}, {"lieu_de_vote": "ECOLE CHATEAU DE L'HERS", "adresse": "8 RUE CLAUDIUS ROUGENET", "bureaux": ["235", "236", "237", "238", "238A"], "geo_point_2d": {"lon": 1.4849404406162598, "lat": 43.60062670145796}}, {"lieu_de_vote": "ECOLE H GUILLAUMET", "adresse": "30 CH BITET", "bureaux": ["239", "239A", "240", "240A", "241", "242", "242A", "243", "242A", "243A", "239A", "240A"], "geo_point_2d": {"lon": 1.488302187960925, "lat": 43.577183330808275}}, {"lieu_de_vote": "GROUPE SCOLAIRE ANATOLE FRANCE", "adresse": "21 BD DE LA MEDITERRANEE", "bureaux": ["249", "250", "251", "252", "253", "254", "255", "256"], "geo_point_2d": {"lon": 1.4626329374640752, "lat": 43.58573302105985}}, {"lieu_de_vote": "GROUPE SCOLAIRE BONHOURE", "adresse": "20 B PL MARIUS PINEL", "bureaux": ["042", "043", "044", "045", "046", "047"], "geo_point_2d": {"lon": 1.4662615975755626, "lat": 43.60256060826549}}, {"lieu_de_vote": "ECOLE FABRE", "adresse": "RUE PIERRE BRUNIERE", "bureaux": ["058", "059", "060", "061", "062", "063"], "geo_point_2d": {"lon": 1.4433779231284547, "lat": 43.59584862127251}}, {"lieu_de_vote": "ECOLE BUFFON", "adresse": "6 IMP DES GLIERES", "bureaux": ["091", "092", "093"], "geo_point_2d": {"lon": 1.4112106470091415, "lat": 43.5647830735015}}, {"lieu_de_vote": "GYMNASE PIERRE MONTANE", "adresse": "5 AV RAYMOND BADIOU", "bureaux": ["117", "118", "123", "124", "125", "129", "130", "130A", "149", "150", "151", "152", "153", "130A", "123A"], "geo_point_2d": {"lon": 1.4138875593822502, "lat": 43.59878258140645}}, {"lieu_de_vote": "MATERNELLE DIDIER DAURAT", "adresse": "19 RUE JEAN GILLES", "bureaux": ["100", "101", "102", "103"], "geo_point_2d": {"lon": 1.402696584692849, "lat": 43.57355205293685}}, {"lieu_de_vote": "ECOLE LES AMIDONNIERS", "adresse": "123 ALL DE BRIENNE", "bureaux": ["154", "155", "156"], "geo_point_2d": {"lon": 1.4207396113340058, "lat": 43.60926905416964}}, {"lieu_de_vote": "MAISON TOULOUSE SERVICES NORD MINIMES", "adresse": "PL MARCHE AUX COCHONS", "bureaux": ["157", "158", "159", "160"], "geo_point_2d": {"lon": 1.4351046279424542, "lat": 43.62065339284057}}, {"lieu_de_vote": "MATERNELLE PONTS JUMEAUX", "adresse": "18 RUE CECILE BRUNSCHVICG", "bureaux": ["165", "165A", "166", "165A"], "geo_point_2d": {"lon": 1.4220724552154425, "lat": 43.61479638677464}}, {"lieu_de_vote": "ECOLE JULES FERRY", "adresse": "109 AV DE FRONTON", "bureaux": ["179", "180", "181", "182", "182A", "182A"], "geo_point_2d": {"lon": 1.4325517743138063, "lat": 43.63283164463403}}, {"lieu_de_vote": "MATERNELLE JEAN DIEUZAIDE", "adresse": "14 CH DE LA GLACIERE", "bureaux": ["187"], "geo_point_2d": {"lon": 1.4197365934756132, "lat": 43.64493236604477}}, {"lieu_de_vote": "ECOLE MICHOUN", "adresse": "49 CH MICHOUN", "bureaux": ["206", "207", "208", "209", "210", "211"], "geo_point_2d": {"lon": 1.4679185990037467, "lat": 43.62692233728975}}, {"lieu_de_vote": "ECOLE SOUPETARD", "adresse": "37 RUE DE LA SOLIDARITE", "bureaux": ["218", "219", "220", "221"], "geo_point_2d": {"lon": 1.4786015175560396, "lat": 43.606808827665574}}, {"lieu_de_vote": "ECOLE MAURICE JACQUIER", "adresse": "7 RUE DU POITOU", "bureaux": ["086", "087", "088", "089"], "geo_point_2d": {"lon": 1.418352728911494, "lat": 43.57513417072232}}, {"lieu_de_vote": "ECOLE DES OUSTALOUS", "adresse": "65 ROUTE D ESPAGNE", "bureaux": ["090"], "geo_point_2d": {"lon": 1.4250978251592161, "lat": 43.5746954154175}}, {"lieu_de_vote": "MDQ GRAND SELVE", "adresse": "1 RUE FLORA TRISTAN", "bureaux": ["188", "188A", "188A"], "geo_point_2d": {"lon": 1.4490587874740102, "lat": 43.64937681854713}}, {"lieu_de_vote": "SALLE OSETE - DURANTI", "adresse": "6 RUE LT COLONEL PELISSIER", "bureaux": ["018", "019", "031", "032", "033", "034", "035", "036", "037", "038", "039"], "geo_point_2d": {"lon": 1.4469662135292798, "lat": 43.60325598164094}}]